{
  "type":"FeatureCollection",
  "features":[
    {
      "type":"Feature",
      "properties":{
        "id":"5901012409",
        "name":"家音藥局",
        "phone":"02 -37652080",
        "address":"台北市松山區民生東路5段73號",
        "mask_adult":0,
        "mask_child":505,
        "updated":"2020\/03\/10 18:54:42",
        "available":"星期一上午看診、星期二上午看診、星期三上午看診、星期四上午看診、星期五上午看診、星期六上午看診、星期日上午看診、星期一下午看診、星期二下午看診、星期三下午看診、星期四下午看診、星期五下午看診、星期六下午看診、星期日下午看診、星期一晚上看診、星期二晚上看診、星期三晚上看診、星期四晚上看診、星期五晚上看診、星期六晚上看診、星期日晚上看診",
        "note":"口罩販售時段 週一~五 16:00起、週六、日18:00起",
        "custom_note":"實名制口罩販售時段\n週一~週五 14:00~22:00\n週六、週日 18:00~22:00\n每日依據配量販售，售完為止",
        "website":"",
        "county":"臺北市",
        "town":"松山區",
        "cunli":"東榮里",
        "service_periods":"NNNNNNNNNNNNNNNNNNNNN"
      },
      "geometry":{
        "type":"Point",
        "coordinates":[
          121.558489,
          25.058709
        ]
      }
    },
    {
      "type":"Feature",
      "properties":{
        "id":"5901012454",
        "name":"敦北藥局",
        "phone":"02 -27155691",
        "address":"台北市松山區民生東路4段80巷5號",
        "mask_adult":0,
        "mask_child":960,
        "updated":"2020\/03\/10 18:54:42",
        "available":"星期一上午看診、星期二上午看診、星期三上午看診、星期四上午看診、星期五上午看診、星期六上午看診、星期日上午看診、星期一下午看診、星期二下午看診、星期三下午看診、星期四下午看診、星期五下午看診、星期六下午看診、星期日下午看診、星期一晚上看診、星期二晚上看診、星期三晚上看診、星期四晚上看診、星期五晚上看診、星期六晚上看診、星期日晚上看診",
        "note":"-",
        "custom_note":"",
        "website":"",
        "county":"臺北市",
        "town":"松山區",
        "cunli":"東昌里",
        "service_periods":"NNNNNNNNNNNNNNNNNNNNN"
      },
      "geometry":{
        "type":"Point",
        "coordinates":[
          121.553125,
          25.057129
        ]
      }
    },
    {
      "type":"Feature",
      "properties":{
        "id":"5901012490",
        "name":"中美藥局",
        "phone":"02 -27627468",
        "address":"台北市松山區富錦街531號",
        "mask_adult":0,
        "mask_child":1044,
        "updated":"2020\/03\/10 18:54:42",
        "available":"星期一上午看診、星期二上午看診、星期三上午看診、星期四上午看診、星期五上午看診、星期六上午看診、星期日上午看診、星期一下午看診、星期二下午看診、星期三下午看診、星期四下午看診、星期五下午看診、星期六下午看診、星期日下午看診、星期一晚上看診、星期二晚上看診、星期三晚上看診、星期四晚上看診、星期五晚上看診、星期六晚上看診、星期日晚上看診",
        "note":"營業時間如有異動，以藥局公告為準",
        "custom_note":"",
        "website":"",
        "county":"臺北市",
        "town":"松山區",
        "cunli":"新益里",
        "service_periods":"NNNNNNNNNNNNNNNNNNNNN"
      },
      "geometry":{
        "type":"Point",
        "coordinates":[
          121.565481,
          25.061285
        ]
      }
    },
    {
      "type":"Feature",
      "properties":{
        "id":"5901012507",
        "name":"康麗藥局",
        "phone":"02 -27174117",
        "address":"台北市松山區南京東路3段303巷20號",
        "mask_adult":0,
        "mask_child":157,
        "updated":"2020\/03\/10 18:54:42",
        "available":"星期一上午看診、星期二上午看診、星期三上午看診、星期四上午看診、星期五上午看診、星期六上午看診、星期日上午休診、星期一下午看診、星期二下午看診、星期三下午看診、星期四下午看診、星期五下午看診、星期六下午看診、星期日下午休診、星期一晚上看診、星期二晚上看診、星期三晚上看診、星期四晚上看診、星期五晚上看診、星期六晚上看診、星期日晚上休診",
        "note":"春節營業時間請電洽",
        "custom_note":"",
        "website":"",
        "county":"臺北市",
        "town":"松山區",
        "cunli":"中正里",
        "service_periods":"NNNNNNYNNNNNNYNNNNNNY"
      },
      "geometry":{
        "type":"Point",
        "coordinates":[
          121.546826,
          25.05369
        ]
      }
    }
  ]
}
